[
  {
    "iata": "ATL",
    "name": "Hartsfield-Jackson Atlanta International Airport",
    "city": "Atlanta",
    "region": "Georgia",
    "country": "United States",
    "lat": 33.6407,
    "lon": -84.4277,
    "source": "local",
    "type": "airport"
  },
  {
    "iata": "PEK",
    "name": "Beijing Capital International Airport",
    "city": "Beijing",
    "region": "Beijing",
    "country": "China",
    "lat": 40.0799,
    "lon": 116.6031,
    "source": "local",
    "type": "airport"
  },
  {
    "iata": "LAX",
    "name": "Los Angeles International Airport",
    "city": "Los Angeles",
    "region": "California",
    "country": "United States",
    "lat": 34.0522,
    "lon": -118.2437,
    "source": "local",
    "type": "airport"
  },
  {
    "iata": "DXB",
    "name": "Dubai International Airport",
    "city": "Dubai",
    "region": "Dubai",
    "country": "United Arab Emirates",
    "lat": 25.2532,
    "lon": 55.3657,
    "source": "local",
    "type": "airport"
  },
  {
    "iata": "ORD",
    "name": "O'Hare International Airport",
    "city": "Chicago",
    "region": "Illinois",
    "country": "United States",
    "lat": 41.9742,
    "lon": -87.9073,
    "source": "local",
    "type": "airport"
  },
  {
    "iata": "LHR",
    "name": "London Heathrow Airport",
    "city": "London",
    "region": "England",
    "country": "United Kingdom",
    "lat": 51.4700,
    "lon": -0.4543,
    "source": "local",
    "type": "airport"
  },
  {
    "iata": "HND",
    "name": "Tokyo Haneda Airport",
    "city": "Tokyo",
    "region": "Tokyo",
    "country": "Japan",
    "lat": 35.5494,
    "lon": 139.7798,
    "source": "local",
    "type": "airport"
  },
  {
    "iata": "CDG",
    "name": "Charles de Gaulle Airport",
    "city": "Paris",
    "region": "Île-de-France",
    "country": "France",
    "lat": 49.0097,
    "lon": 2.5479,
    "source": "local",
    "type": "airport"
  },
  {
    "iata": "DEN",
    "name": "Denver International Airport",
    "city": "Denver",
    "region": "Colorado",
    "country": "United States",
    "lat": 39.8561,
    "lon": -104.6737,
    "source": "local",
    "type": "airport"
  },
  {
    "iata": "JFK",
    "name": "John F. Kennedy International Airport",
    "city": "New York",
    "region": "New York",
    "country": "United States",
    "lat": 40.6413,
    "lon": -73.7781,
    "source": "local",
    "type": "airport"
  },
  {
    "iata": "SIN",
    "name": "Singapore Changi Airport",
    "city": "Singapore",
    "region": "Singapore",
    "country": "Singapore",
    "lat": 1.3644,
    "lon": 103.9915,
    "source": "local",
    "type": "airport"
  },
  {
    "iata": "LAS",
    "name": "McCarran International Airport",
    "city": "Las Vegas",
    "region": "Nevada",
    "country": "United States",
    "lat": 36.0840,
    "lon": -115.1537,
    "source": "local",
    "type": "airport"
  },
  {
    "iata": "AMS",
    "name": "Amsterdam Airport Schiphol",
    "city": "Amsterdam",
    "region": "North Holland",
    "country": "Netherlands",
    "lat": 52.3105,
    "lon": 4.7683,
    "source": "local",
    "type": "airport"
  },
  {
    "iata": "SEA",
    "name": "Seattle-Tacoma International Airport",
    "city": "Seattle",
    "region": "Washington",
    "country": "United States",
    "lat": 47.4502,
    "lon": -122.3088,
    "source": "local",
    "type": "airport"
  },
  {
    "iata": "CLT",
    "name": "Charlotte Douglas International Airport",
    "city": "Charlotte",
    "region": "North Carolina",
    "country": "United States",
    "lat": 35.2144,
    "lon": -80.9473,
    "source": "local",
    "type": "airport"
  },
  {
    "iata": "FRA",
    "name": "Frankfurt Airport",
    "city": "Frankfurt",
    "region": "Hesse",
    "country": "Germany",
    "lat": 49.4264,
    "lon": 8.5706,
    "source": "local",
    "type": "airport"
  },
  {
    "iata": "PHX",
    "name": "Phoenix Sky Harbor International Airport",
    "city": "Phoenix",
    "region": "Arizona",
    "country": "United States",
    "lat": 33.4342,
    "lon": -112.0080,
    "source": "local",
    "type": "airport"
  },
  {
    "iata": "MIA",
    "name": "Miami International Airport",
    "city": "Miami",
    "region": "Florida",
    "country": "United States",
    "lat": 25.7959,
    "lon": -80.2870,
    "source": "local",
    "type": "airport"
  },
  {
    "iata": "IAH",
    "name": "George Bush Intercontinental Airport",
    "city": "Houston",
    "region": "Texas",
    "country": "United States",
    "lat": 29.9902,
    "lon": -95.3368,
    "source": "local",
    "type": "airport"
  },
  {
    "iata": "MSP",
    "name": "Minneapolis-Saint Paul International Airport",
    "city": "Minneapolis",
    "region": "Minnesota",
    "country": "United States",
    "lat": 44.8848,
    "lon": -93.2223,
    "source": "local",
    "type": "airport"
  },
  {
    "iata": "NRT",
    "name": "Narita International Airport",
    "city": "Tokyo",
    "region": "Chiba",
    "country": "Japan",
    "lat": 35.7720,
    "lon": 140.3929,
    "source": "local",
    "type": "airport"
  },
  {
    "iata": "DTW",
    "name": "Detroit Metropolitan Wayne County Airport",
    "city": "Detroit",
    "region": "Michigan",
    "country": "United States",
    "lat": 42.2162,
    "lon": -83.3554,
    "source": "local",
    "type": "airport"
  },
  {
    "iata": "BOS",
    "name": "Logan International Airport",
    "city": "Boston",
    "region": "Massachusetts",
    "country": "United States",
    "lat": 42.3656,
    "lon": -71.0096,
    "source": "local",
    "type": "airport"
  },
  {
    "iata": "PVG",
    "name": "Shanghai Pudong International Airport",
    "city": "Shanghai",
    "region": "Shanghai",
    "country": "China",
    "lat": 31.1443,
    "lon": 121.8083,
    "source": "local",
    "type": "airport"
  },
  {
    "iata": "SFO",
    "name": "San Francisco International Airport",
    "city": "San Francisco",
    "region": "California",
    "country": "United States",
    "lat": 37.6213,
    "lon": -122.3790,
    "source": "local",
    "type": "airport"
  },
  {
    "iata": "LGA",
    "name": "LaGuardia Airport",
    "city": "New York",
    "region": "New York",
    "country": "United States",
    "lat": 40.7769,
    "lon": -73.8740,
    "source": "local",
    "type": "airport"
  },
  {
    "iata": "EWR",
    "name": "Newark Liberty International Airport",
    "city": "Newark",
    "region": "New Jersey",
    "country": "United States",
    "lat": 40.6895,
    "lon": -74.1745,
    "source": "local",
    "type": "airport"
  },
  {
    "iata": "DCA",
    "name": "Ronald Reagan Washington National Airport",
    "city": "Washington",
    "region": "District of Columbia",
    "country": "United States",
    "lat": 38.8512,
    "lon": -77.0402,
    "source": "local",
    "type": "airport"
  },
  {
    "iata": "BWI",
    "name": "Baltimore-Washington International Airport",
    "city": "Baltimore",
    "region": "Maryland",
    "country": "United States",
    "lat": 39.1774,
    "lon": -76.6684,
    "source": "local",
    "type": "airport"
  },
  {
    "iata": "MCO",
    "name": "Orlando International Airport",
    "city": "Orlando",
    "region": "Florida",
    "country": "United States",
    "lat": 28.4312,
    "lon": -81.3081,
    "source": "local",
    "type": "airport"
  },
  {
    "iata": "DPS",
    "name": "Ngurah Rai International Airport",
    "city": "Denpasar",
    "region": "Bali",
    "country": "Indonesia",
    "lat": -8.7467,
    "lon": 115.1671,
    "source": "local",
    "type": "airport"
  },
  {
    "iata": "CGK",
    "name": "Soekarno-Hatta International Airport",
    "city": "Jakarta",
    "region": "Jakarta",
    "country": "Indonesia",
    "lat": -6.1256,
    "lon": 106.6558,
    "source": "local",
    "type": "airport"
  },
  {
    "iata": "SBY",
    "name": "Juanda International Airport",
    "city": "Surabaya",
    "region": "East Java",
    "country": "Indonesia",
    "lat": -7.3797,
    "lon": 112.7869,
    "source": "local",
    "type": "airport"
  },
  {
    "iata": "RUH",
    "name": "King Khalid International Airport",
    "city": "Riyadh",
    "region": "Riyadh Province",
    "country": "Saudi Arabia",
    "lat": 24.9576,
    "lon": 46.6988,
    "source": "local",
    "type": "airport"
  },
  {
    "iata": "JED",
    "name": "King Abdulaziz International Airport",
    "city": "Jeddah",
    "region": "Makkah Province",
    "country": "Saudi Arabia",
    "lat": 21.6796,
    "lon": 39.1565,
    "source": "local",
    "type": "airport"
  },
  {
    "iata": "DMM",
    "name": "King Fahd International Airport",
    "city": "Dammam",
    "region": "Eastern Province",
    "country": "Saudi Arabia",
    "lat": 26.4712,
    "lon": 49.7979,
    "source": "local",
    "type": "airport"
  },
  {
    "iata": "MED",
    "name": "Prince Mohammad bin Abdulaziz Airport",
    "city": "Medina",
    "region": "Al Madinah Province",
    "country": "Saudi Arabia",
    "lat": 24.5534,
    "lon": 39.7051,
    "source": "local",
    "type": "airport"
  },
  {
    "iata": "AHB",
    "name": "Abha Regional Airport",
    "city": "Abha",
    "region": "Asir Province",
    "country": "Saudi Arabia",
    "lat": 18.2404,
    "lon": 42.6563,
    "source": "local",
    "type": "airport"
  },
  {
    "iata": "TUU",
    "name": "Tabuk Regional Airport",
    "city": "Tabuk",
    "region": "Tabuk Province",
    "country": "Saudi Arabia",
    "lat": 28.3654,
    "lon": 36.6189,
    "source": "local",
    "type": "airport"
  },
  {
    "iata": "DOH",
    "name": "Hamad International Airport",
    "city": "Doha",
    "region": "Doha",
    "country": "Qatar",
    "lat": 25.2732,
    "lon": 51.6081,
    "source": "local",
    "type": "airport"
  },
  {
    "iata": "AUH",
    "name": "Abu Dhabi International Airport",
    "city": "Abu Dhabi",
    "region": "Abu Dhabi",
    "country": "United Arab Emirates",
    "lat": 24.4330,
    "lon": 54.6511,
    "source": "local",
    "type": "airport"
  },
  {
    "iata": "SHJ",
    "name": "Sharjah International Airport",
    "city": "Sharjah",
    "region": "Sharjah",
    "country": "United Arab Emirates",
    "lat": 25.3286,
    "lon": 55.5172,
    "source": "local",
    "type": "airport"
  },
  {
    "iata": "KWI",
    "name": "Kuwait International Airport",
    "city": "Kuwait City",
    "region": "Al Asimah",
    "country": "Kuwait",
    "lat": 29.2267,
    "lon": 47.9689,
    "source": "local",
    "type": "airport"
  },
  {
    "iata": "BAH",
    "name": "Bahrain International Airport",
    "city": "Manama",
    "region": "Capital",
    "country": "Bahrain",
    "lat": 26.2708,
    "lon": 50.6336,
    "source": "local",
    "type": "airport"
  },
  {
    "iata": "MCT",
    "name": "Muscat International Airport",
    "city": "Muscat",
    "region": "Muscat",
    "country": "Oman",
    "lat": 23.5933,
    "lon": 58.2844,
    "source": "local",
    "type": "airport"
  },
  {
    "iata": "CAI",
    "name": "Cairo International Airport",
    "city": "Cairo",
    "region": "Cairo",
    "country": "Egypt",
    "lat": 30.1219,
    "lon": 31.4056,
    "source": "local",
    "type": "airport"
  },
  {
    "iata": "IST",
    "name": "Istanbul Airport",
    "city": "Istanbul",
    "region": "Istanbul",
    "country": "Turkey",
    "lat": 41.2753,
    "lon": 28.7519,
    "source": "local",
    "type": "airport"
  },
  {
    "iata": "SAW",
    "name": "Sabiha Gökçen International Airport",
    "city": "Istanbul",
    "region": "Istanbul",
    "country": "Turkey",
    "lat": 40.8986,
    "lon": 29.3092,
    "source": "local",
    "type": "airport"
  }
] 